<!doctype>
<html>
  <head>
    <meta name="viewport" content="initial-scale=1.0, user-scalable=no" />
    <meta http-equiv="content-type" content="text/html; charset=UTF-8" />
    <title>Google Maps - pin cities</title>
    <style type="text/css">
      html, body { height: 100%; margin: 0; padding: 0; }
      #map_canvas { height: 100%; }
    </style>
  </head>
  <body>
    <div id="map_canvas"></div>
   
    <script type="text/javascript">
     var data = [

          {"Name": "Abia", "Latitude": "5.421259", "Longitude": "7.487874", NumberOfLGAs: 17},
          {"Name": "Adamawa", "Latitude": "9.21219", "Longitude": "12.352868", NumberOfLGAs:  22},
          {"Name": "Akwa Ibom ", "Latitude": "4.958315", "Longitude": "7.792167", NumberOfLGAs: 31},
          {"Name": "Anambra", "Latitude": "6.2758", "Longitude": "7.0068", NumberOfLGAs: 21}, 
          {"Name": "Bauchi", "Latitude": "10.6371", "Longitude": "10.0807", NumberOfLGAs: 20},
          {"Name": "Bayelsa", "Latitude": "4.783623", "Longitude": "5.907197", NumberOfLGAs: 9},
          {"Name": "Benue", "Latitude": "7.280034", "Longitude": "8.857412", NumberOfLGAs: 22},
          {"Name": "Borno", "Latitude": "11.874328", "Longitude": "13.456883", NumberOfLGAs: 27},
          {"Name": "Cross River", "Latitude": "6.1670", "Longitude": "8.6601", NumberOfLGAs: 18},		  
          {"Name": "Delta", "Latitude": "5.5325", "Longitude": "5.8987", NumberOfLGAs: 25},          
          {"Name": "Ebonyi", "Latitude": "6.1780", "Longitude": "7.9593", NumberOfLGAs: 13},      
          {"Name": "Edo", "Latitude": "6.5438", "Longitude": "5.8987", NumberOfLGAs: 19},
          {"Name": "Ekiti", "Latitude": "7.6656", "Longitude": "5.3103", NumberOfLGAs: 16},
          {"Name": "Enugu", "Latitude": "6.6069", "Longitude": "7.5247", NumberOfLGAs: 17},
          {"Name": "Abuja", "Latitude": "9.0765", "Longitude": "7.3986", NumberOfLGAs: 6},
          {"Name": "Gombe", "Latitude": "10.2464", "Longitude": "11.1617", NumberOfLGAs: 11},
          {"Name": "Imo", "Latitude": "5.6039", "Longitude": "7.0068", NumberOfLGAs:  27},
          { "Name": "Jigawa", "Latitude": "12.4460", "Longitude": "9.7233", NumberOfLGAs: 27},
          {"Name": "Kaduna", "Latitude": "10.5105", "Longitude": "7.4165", NumberOfLGAs: 23},
          {"Name": "Kano", "Latitude": "12.0022", "Longitude": "8.5920", NumberOfLGAs: 44},
          {"Name": "Katsina", "Latitude": "12.9816", "Longitude": "7.6223", NumberOfLGAs: 34},
          {"Kebbi", "Latitude": "12.0333", "Longitude": "4.6333", NumberOfLGAs: 22},         
          {"Name": "Kogi", "Latitude": "7.9075", "6.5783": "6.739939737", NumberOfLGAs: 20},
          {"Name": "Kwara", "Latitude": "11.8333", "Longitude": "9.6000", NumberOfLGAs: 16},
          {"Name": "Lagos", "Latitude": "6.45", "Longitude": " 3.4", NumberOfLGAs: 20},
          {"Name": "Nassarawa", "Latitude": "8.5705", "Longitude": "8.3088", NumberOfLGAs: 13},
          {"Name": "Niger", "Latitude": "10.2155", "Longitude": "5.3940", NumberOfLGAs: 24},
          {"Name": "Ogun", "Latitude": "6.9075", "Longitude": "3.5813", NumberOfLGAs: 19},
          {"Name": "Ondo", "Latitude": "6.8959", "Longitude": "4.8936", NumberOfLGAs: 18},
          {"Name": "Osun", "Latitude": "7.5876", "Longitude": "4.5624", NumberOfLGAs: 30},
          {"Name": "Oyo", "Latitude": "8.1196", "Longitude": "3.4196", NumberOfLGAs: 34},
          {"Name": "Plateau", "Latitude": "9.2446", "Longitude": "9.3673", NumberOfLGAs: 17},
          {"Name": "Rivers", "Latitude": "4.8581", "Longitude": "6.9209", NumberOfLGAs: 23},
          {"Name": "Sokoto", "Latitude": "12.9374", "Longitude": "5.2267", NumberOfLGAs: 22},
          {"Name": "Taraba", "Latitude": "8.0055", "Longitude": "10.2600", NumberOfLGAs: 16},
          {"Name": "Yobe", "Latitude": "12.1871", "Longitude": "11.7068", NumberOfLGAs: 17},
          {"Name": "Zamfara", "Latitude": "12.1844", "Longitude": "6.2376", NumberOfLGAs: 14}
];


    	var geocoder, map;
function initMap()
{
    geocoder = new google.maps.Geocoder();
    var latlng = new google.maps.LatLng(9.0820, 8.6753);
    var options =
        {
        zoom: 6,
        center: latlng,
        mapTypeId: google.maps.MapTypeId.ROADMAP
    };
    map = new google.maps.Map(document.getElementById("map_canvas"), options);
      
     data.forEach(function (item, i) 
     {
        codeAddress(item);

    });
}

function codeAddress(address)
{
    map.setCenter({ lat: parseFloat(address.Latitude), lng: parseFloat(address.Longitude) });
    var marker = new google.maps.Marker({
        'position': new google.maps.LatLng(address.Latitude, address.Longitude),
        'map': map,
        'title': address.Name
    });
    var infowindow = new google.maps.InfoWindow({
        content: "<div class='infoDiv'><h2>" + address.Name + "</div></div>"
    });

    google.maps.event.addListener(marker, 'click', function () {
        infowindow.open(map, marker);
    });

}
    </script>
     <script async defer
    src="https://maps.googleapis.com/maps/api/js?key=AIzaSyBu-916DdpKAjTmJNIgngS6HL_kDIKU0aU&callback=initMap&region=NG">
    </script>
  </body>
</html>